City,lat,Lng,Max Temp,Humidity,Cloudiness,Wind Speed,Country,Date
Hermanus,-34.4187,19.2345,59.0,73,37,7.0,ZA,1619910621
Albany,42.6001,-73.9662,53.01,37,40,9.22,US,1619910350
Ponta do Sol,32.6667,-17.1,57.99,65,90,1.99,PT,1619910444
Yellowknife,62.456,-114.3525,34.0,51,20,9.22,CA,1619910621
Airai,-8.9266,125.4092,60.85,81,81,3.51,TL,1619910622
Haapiti,-17.5667,-149.8667,87.8,62,20,4.61,PF,1619910622
Punta Arenas,-53.15,-70.9167,41.0,87,40,4.61,CL,1619910622
Nikolskoye,59.7035,30.7861,37.4,70,0,2.24,RU,1619910623
Bangangté,5.1409,10.5198,61.09,96,100,3.51,CM,1619910623
Adrar,20.5022,-10.0711,84.61,30,36,4.85,MR,1619910623
Butaritari,3.0707,172.7902,82.98,74,99,10.54,KI,1619910624
Provideniya,64.3833,-173.3,26.37,55,37,5.03,RU,1619910624
Bredasdorp,-34.5322,20.0403,46.4,93,82,6.91,ZA,1619910092
Moerai,-22.4333,-151.3333,74.75,63,37,13.71,PF,1619910624
Hobart,-42.8794,147.3294,63.0,63,0,6.91,AU,1619910615
Port Alfred,-33.5906,26.891,60.76,66,0,5.17,ZA,1619910625
São Filipe,14.8961,-24.4956,72.86,73,4,13.87,CV,1619910625
Hilo,19.7297,-155.09,84.2,61,1,13.8,US,1619910601
Kapaa,22.0752,-159.319,80.6,69,20,16.11,US,1619910589
Tuatapere,-46.1333,167.6833,53.01,82,4,1.99,NZ,1619910626
Port Elizabeth,-33.918,25.5701,55.4,76,0,6.91,ZA,1619910484
Tuktoyaktuk,69.4541,-133.0374,14.0,92,90,2.3,CA,1619910594
Traralgon,-38.1833,146.5333,64.0,58,100,4.0,AU,1619910626
New Norfolk,-42.7826,147.0587,63.0,66,100,2.3,AU,1619910626
Avarua,-21.2078,-159.775,80.6,74,40,14.97,CK,1619910627
Cabañas,22.9758,-82.9219,84.2,58,40,13.8,CU,1619910627
Hong Kong,22.2855,114.1577,79.0,85,93,1.1,HK,1619910627
Tiznit Province,29.5833,-9.5,57.07,77,100,4.52,MA,1619910628
Smidovich,48.6,133.8167,45.32,53,97,5.86,RU,1619910628
Salinópolis,-0.6136,-47.3561,78.26,82,31,5.3,BR,1619910628
Saint-Philippe,-21.3585,55.7679,73.99,73,0,5.75,RE,1619910157
Karratha,-20.7377,116.8463,78.82,59,3,4.52,AU,1619910551
Ulladulla,-35.35,150.4667,61.0,100,100,5.12,AU,1619910629
Bluff,-46.6,168.3333,53.01,82,58,1.99,NZ,1619910069
East London,-33.0153,27.9116,60.8,66,0,5.84,ZA,1619910487
Bambous Virieux,-20.3428,57.7575,75.0,94,75,4.61,MU,1619910630
Chapais,49.7834,-74.8492,44.6,36,90,18.41,CA,1619910630
Bara,10.3744,10.7288,87.57,37,60,2.84,NG,1619910630
Torbay,47.6666,-52.7314,42.01,75,75,27.63,CA,1619910630
Ostrovnoy,68.0531,39.5131,29.88,93,100,19.64,RU,1619910631
Daru,-9.0763,143.2092,80.49,82,16,13.76,PG,1619910631
Upernavik,72.7868,-56.1549,26.01,83,9,5.84,GL,1619910523
Arlit,18.7369,7.3853,88.7,4,0,10.63,NE,1619910631
Geraldton,-28.7667,114.6,51.8,62,86,6.91,AU,1619910444
Cupar,56.3188,-3.012,41.0,93,75,2.3,GB,1619910632
Rāvar,31.2656,56.8055,64.8,62,75,0.85,IR,1619910547
Esim,4.8699,-2.2405,81.64,82,85,5.84,GH,1619910632
Ushuaia,-54.8,-68.3,39.2,70,20,3.44,AR,1619910057
Rikitea,-23.1203,-134.9692,75.6,80,91,7.45,PF,1619910633
Hamilton,39.1834,-84.5333,71.6,35,1,16.11,US,1619910633
Havøysund,70.9963,24.6622,26.6,80,83,7.27,NO,1619910633
Busselton,-33.65,115.3333,55.0,97,5,3.0,AU,1619910068
Bengkulu,-3.8004,102.2655,75.16,87,67,4.21,ID,1619910634
Hithadhoo,-0.6,73.0833,83.93,71,81,4.54,MV,1619910634
Oceanside,33.1959,-117.3795,71.01,63,1,5.75,US,1619910632
Qaanaaq,77.484,-69.3632,32.74,68,82,5.5,GL,1619910634
Prince George,53.9166,-122.753,55.0,57,40,11.5,CA,1619910500
Santa Maria,-29.6842,-53.8069,69.8,68,0,3.44,BR,1619910635
Mutoko,-17.397,32.2268,60.26,91,90,5.14,ZW,1619910635
Mataura,-46.1927,168.8643,53.01,82,18,1.99,NZ,1619910403
Palmer,42.1584,-72.3287,57.2,24,75,14.97,US,1619910635
Northam,51.0333,-4.2167,39.99,75,10,2.46,GB,1619910636
Arraial do Cabo,-22.9661,-42.0278,72.9,68,100,11.52,BR,1619910431
Sehithwa,-20.4667,22.7167,64.13,27,0,8.66,BW,1619910636
Wahlern,46.8281,7.3532,42.01,100,75,3.44,CH,1619910637
Onega,63.9061,38.1404,29.89,81,94,9.84,RU,1619910637
Norman Wells,65.282,-126.8329,46.4,36,20,14.97,CA,1619910457
Sumbe,-11.2061,13.8437,77.07,90,100,5.01,AO,1619910637
Miandrivazo,-19.5167,45.4667,74.28,86,55,1.28,MG,1619910638
Gulu,2.7746,32.299,64.22,91,88,1.21,UG,1619910638
Troitsko-Pechorsk,62.7084,56.1964,32.45,93,22,8.05,RU,1619910638
Barrow,71.2906,-156.7887,21.2,79,90,11.5,US,1619910639
Mahébourg,-20.4081,57.7,73.4,94,75,4.61,MU,1619910524
Tarko-Sale,64.9225,77.785,26.01,90,100,7.99,RU,1619910639
Tūkrah,32.5341,20.5791,84.13,21,1,7.65,LY,1619910640
Buin,-33.7333,-70.75,60.8,59,0,8.05,CL,1619910640
Tanete,-3.9443,119.7848,74.48,91,55,3.62,ID,1619910640
Sørland,67.667,12.6934,35.74,65,100,12.64,NO,1619910641
Lebu,-37.6167,-73.65,55.4,92,100,15.08,CL,1619910641
Astoria,46.1879,-123.8313,55.99,58,90,9.22,US,1619910641
Ahipara,-35.1667,173.1667,63.32,54,0,7.63,NZ,1619910642
Tsimmerbude,54.675,20.1347,44.6,65,0,11.18,RU,1619910559
Pine Bluff,34.2284,-92.0032,77.0,41,1,6.91,US,1619910642
Harper,4.375,-7.7169,80.73,80,100,8.72,LR,1619910643
Kibaya,-5.3,36.5667,58.91,98,52,3.36,TZ,1619910643
Chokurdakh,70.6333,147.9167,18.39,90,75,4.32,RU,1619910643
Haines Junction,60.7522,-137.5108,48.2,37,97,6.91,CA,1619910644
Sinnamary,5.3833,-52.95,78.08,87,85,9.19,GF,1619910644
Marystown,47.1666,-55.1483,38.07,94,100,15.93,CA,1619910644
Nunchía,5.6406,-72.1986,72.79,93,62,1.34,CO,1619910645
Vaini,-21.2,-175.2,80.6,74,40,12.66,TO,1619910591
Jinji,23.2281,110.8261,75.87,88,98,2.1,CN,1619910645
Puerto Ayora,-0.7393,-90.3518,82.4,65,0,13.8,EC,1619910645
Thompson,55.7435,-97.8558,23.0,86,90,9.22,CA,1619910068
Los Llanos de Aridane,28.6585,-17.9182,68.0,60,75,12.66,ES,1619910434
Klaksvík,62.2266,-6.589,35.6,87,75,2.3,FO,1619910596
Jizan,17.3333,42.6667,87.8,66,40,5.75,SA,1619910646
Thinadhoo,0.5333,72.9333,83.23,71,61,3.47,MV,1619910646
Cidreira,-30.1811,-50.2056,70.09,76,0,17.67,BR,1619910074
Paamiut,61.994,-49.6678,37.35,70,66,6.38,GL,1619910647
Marabu,4.4148,114.0089,75.2,94,20,2.3,MY,1619910647
George Town,5.4112,100.3354,78.8,89,40,5.75,MY,1619910647
Ulaangom,49.9811,92.0667,41.13,53,99,6.96,MN,1619910648
Betioky,-23.7167,44.3833,67.91,74,100,2.86,MG,1619910648
Burnie,-41.0667,145.9167,60.01,74,100,1.01,AU,1619910554
Iqaluit,63.7506,-68.5145,39.2,70,75,20.71,CA,1619910468
Abay,49.6311,72.8539,21.2,79,0,8.95,KZ,1619910649
Zyryanka,65.75,150.85,30.65,88,96,3.27,RU,1619910649
Boa Vista,2.8197,-60.6733,84.2,70,40,6.91,BR,1619910620
Diré,12.2833,-10.9667,90.43,37,29,4.88,ML,1619910649
Umluj,25.0213,37.2685,81.14,55,0,6.58,SA,1619910650
Yunhe,34.0833,119.7167,52.95,61,1,9.06,CN,1619910650
Saint Anthony,45.0205,-93.218,87.8,17,20,17.27,US,1619910651
Port Hawkesbury,45.6169,-61.3485,39.99,87,1,12.66,CA,1619910651
Moroni,-11.7022,43.2551,79.83,81,4,5.82,KM,1619910651
Caravelas,-17.7125,-39.2481,74.41,69,77,9.13,BR,1619910652
Oxbow,49.2333,-102.1676,70.0,31,96,5.01,CA,1619910652
Lovozero,68.005,35.0117,13.1,86,53,7.49,RU,1619910652
Meulaboh,4.1363,96.1285,77.32,88,76,2.42,ID,1619910652
Khatanga,71.9667,102.5,19.49,96,72,3.15,RU,1619910653
Padang,-0.9492,100.3543,77.0,94,40,2.3,ID,1619910564
Severo-Kuril'sk,50.6789,156.125,35.58,97,100,23.11,RU,1619910653
Honningsvåg,70.9821,25.9704,32.97,84,99,16.53,NO,1619910654
Mount Gambier,-37.8333,140.7667,59.0,77,71,10.36,AU,1619910654
Dubuque,42.4833,-90.8668,86.0,26,1,28.77,US,1619910609
Clyde River,70.4692,-68.5914,19.4,100,90,0.83,CA,1619910469
Hendrina,-26.1588,29.7153,48.0,79,6,3.0,ZA,1619910544
Grand Gaube,-20.0064,57.6608,75.0,89,13,3.0,MU,1619910655
Bethel,41.3712,-73.414,57.99,31,36,6.38,US,1619910655
San Policarpo,12.1791,125.5072,81.7,83,40,8.55,PH,1619910470
Carnarvon,-24.8667,113.6333,66.2,72,100,9.22,AU,1619910478
Pisco,-13.7,-76.2167,69.8,73,0,10.36,PE,1619910655
Raton,36.9034,-104.4391,80.6,9,1,4.61,US,1619910656
Turukhansk,65.8167,87.9833,32.47,86,93,4.68,RU,1619910656
Atuona,-9.8,-139.0333,79.21,69,2,6.31,PF,1619910656
Katsuura,35.1333,140.3,66.0,63,20,17.27,JP,1619910657
Dolores,-36.3132,-57.6792,60.13,76,24,7.63,AR,1619910657
Beloha,-25.1667,45.05,68.56,80,100,3.71,MG,1619910437
Mar del Plata,-38.0023,-57.5575,66.0,77,0,4.61,AR,1619910551
Lavrentiya,65.5833,-171.0,22.28,73,41,1.95,RU,1619910658
Yangi Marg`ilon,40.4272,71.7189,60.8,82,31,6.91,UZ,1619910658
College,64.8569,-147.8028,41.0,45,40,4.61,US,1619910658
La Ronge,55.1001,-105.2842,53.6,50,93,9.22,CA,1619910659
Ballina,-28.8667,153.5667,71.6,68,40,10.36,AU,1619910659
Bariloche,-41.1456,-71.3082,42.8,87,90,8.05,AR,1619910659
Tasiilaq,65.6145,-37.6368,26.6,86,2,2.24,GL,1619910659
Biak,-0.9131,122.8766,77.81,81,98,4.54,ID,1619910660
Lethem,3.3803,-59.7968,81.64,68,93,5.03,GY,1619910660
Corinth,37.9407,22.9573,66.99,72,74,1.7,GR,1619910661
Lompoc,34.6391,-120.4579,63.0,77,90,20.71,US,1619910661
Lagoa,39.05,-27.9833,60.98,90,100,19.89,PT,1619910661
Lata,40.1629,-8.3327,53.01,74,47,1.45,PT,1619910661
Kamenka,51.3223,42.7678,46.99,94,28,6.76,RU,1619910662
Evensk,61.95,159.2333,29.12,73,5,4.63,RU,1619910618
Cruz das Almas,-12.67,-39.1019,69.55,93,100,7.7,BR,1619910662
Mareeba,-17.0,145.4333,78.01,73,75,12.66,AU,1619910662
San Vicente,-26.6167,-54.1333,62.11,59,23,1.48,AR,1619910663
Saint-Pierre,-21.3393,55.4781,73.99,68,0,6.91,RE,1619910663
Jamestown,42.097,-79.2353,57.99,35,90,20.71,US,1619910663
Mongar,27.2747,91.2396,54.16,69,1,5.93,BT,1619910664
Pokhara,28.2333,83.9833,69.93,41,88,5.06,NP,1619910664
Margate,51.3813,1.3862,46.0,73,34,1.99,GB,1619910664
Isangel,-19.55,169.2667,75.2,94,90,9.22,VU,1619910437
Unirea,44.15,23.1833,66.99,95,92,2.55,RO,1619910665
Narsaq,60.9167,-46.05,44.6,24,20,39.12,GL,1619910665
Alyangula,-13.8483,136.4192,73.4,100,5,11.3,AU,1619910665
Ust-Nera,64.5667,143.2,35.37,93,100,2.21,RU,1619910666
Houma,29.5958,-90.7195,78.01,73,75,11.5,US,1619910666
Oudtshoorn,-33.5907,22.2014,51.8,87,0,3.44,ZA,1619910666
Vila Velha,-20.3297,-40.2925,70.0,94,90,9.22,BR,1619910666
Örnsköldsvik,63.2909,18.7153,24.8,86,43,4.61,SE,1619910667
Laas,46.6166,10.7002,52.0,100,75,5.75,IT,1619910456
Pevek,69.7008,170.3133,14.31,85,86,9.31,RU,1619910667
Caconda,-13.7333,15.0667,59.58,92,100,0.74,AO,1619910667
Santa Isabel,-23.3156,-46.2214,66.99,88,40,3.44,BR,1619910668
Puerto Maldonado,-12.6,-69.1833,78.8,78,0,1.14,PE,1619910668
Grafton,42.207,-71.6856,57.0,32,1,10.36,US,1619910668
Boulder City,35.9786,-114.8325,93.2,5,1,23.02,US,1619910509
Fortuna,40.5982,-124.1573,57.0,82,90,17.27,US,1619910459
Longyearbyen,78.2186,15.6401,17.6,73,20,12.66,SJ,1619910523
Dikson,73.5069,80.5464,20.64,93,100,7.36,RU,1619910669
Okhotsk,59.3833,143.3,34.93,81,79,1.9,RU,1619910669
Grand-Lahou,5.1367,-5.0242,81.86,84,57,9.84,CI,1619910670
Alora,36.8236,-4.7058,60.01,55,0,9.22,ES,1619910670
Kharp,66.8014,65.8081,26.37,96,100,8.81,RU,1619910670
Swellendam,-34.0226,20.4417,46.4,93,62,6.91,ZA,1619910671
Bennington,42.8781,-73.1968,51.8,37,1,4.61,US,1619910604
Cape Town,-33.9258,18.4232,57.99,88,0,4.61,ZA,1619910510
Tabuk,17.4189,121.4443,76.96,82,9,2.15,PH,1619910671
Salalah,17.0151,54.0924,84.2,79,20,3.44,OM,1619910449
Wajid,3.8093,43.2471,77.41,73,91,9.51,SO,1619910671
Yulara,-25.2406,130.9889,66.2,42,37,10.36,AU,1619910672
Surab,28.4914,66.2585,61.3,52,100,3.74,PK,1619910672
Kavaratti,10.5669,72.642,84.09,75,22,5.61,IN,1619910673
Yumbe,3.4651,31.2469,64.99,94,84,4.09,UG,1619910673
Cherskiy,68.75,161.3,18.34,79,47,1.05,RU,1619910087
Coquimbo,-29.9533,-71.3436,57.2,94,0,4.61,CL,1619910673
Härnösand,62.6323,17.9379,34.0,80,90,1.14,SE,1619910674
Inhambane,-23.865,35.3833,72.79,63,87,13.98,MZ,1619910674
Mayumba,-3.432,10.6554,77.85,90,100,4.61,GA,1619910531
Manokwari,-0.8667,134.0833,79.74,76,100,1.43,ID,1619910674
Deer Lake,49.1667,-57.4316,41.0,93,90,5.86,CA,1619910675
Morristown,36.214,-83.2949,71.6,20,1,3.44,US,1619910675
Trairi,-3.2778,-39.2689,75.88,86,100,4.25,BR,1619910530
Viedma,-40.8135,-62.9967,65.91,46,100,8.03,AR,1619910675
Richards Bay,-28.783,32.0377,62.15,87,37,5.39,ZA,1619910567
Gambiran,-6.7988,111.4951,74.41,94,98,4.25,ID,1619910676
Liverpool,53.4106,-2.9779,42.8,93,0,4.61,GB,1619910676
Matucana,-11.85,-76.4,58.69,95,94,3.56,PE,1619910676
Batemans Bay,-35.7167,150.1833,64.99,100,100,3.47,AU,1619910677
Nizhniy Odes,63.6445,54.856,30.92,89,26,8.48,RU,1619910677
Niquelândia,-14.4739,-48.4597,71.55,73,100,3.51,BR,1619910677
Fiumicino,41.7675,12.2291,61.0,94,20,3.44,IT,1619910678
Ternate,0.8,127.4,81.5,75,85,4.09,ID,1619910678
Vestmannaeyjar,63.4427,-20.2734,39.94,65,71,15.61,IS,1619910566
Souillac,-20.5167,57.5167,73.4,94,40,3.44,MU,1619910678
Klyuchi,52.2667,79.1667,37.53,69,26,6.26,RU,1619910679
Imeni Poliny Osipenko,52.4201,136.4853,37.18,71,99,13.09,RU,1619910679
Burē,10.7,37.0667,62.42,75,92,1.72,ET,1619910679
Agüimes,27.9054,-15.4461,66.2,68,40,16.11,ES,1619910680
Nanortalik,60.1432,-45.2371,37.45,64,41,14.67,GL,1619910680
Castro,-24.7911,-50.0119,56.84,95,71,5.75,BR,1619910680
Camacha,33.0833,-16.3333,60.8,63,20,5.75,PT,1619910681
Muros,42.7762,-9.0603,46.0,84,21,6.96,ES,1619910681
Hirara,24.8,125.2833,73.4,100,75,5.75,JP,1619910681
Saldanha,-33.0117,17.9442,55.4,67,3,4.61,ZA,1619910682
Alta Floresta,-9.8756,-56.0861,72.9,93,97,2.95,BR,1619910682
Bandarbeyla,9.4942,50.8122,83.53,73,71,8.05,SO,1619910682
Alofi,-19.0595,-169.9187,82.4,83,75,8.05,NU,1619910683
Hereford,52.0568,-2.7148,39.0,92,45,4.47,GB,1619910683
Dukat,62.55,155.55,26.11,88,99,2.37,RU,1619910683
Vao,-22.6667,167.4833,74.57,68,100,26.22,NC,1619910684
Morón,-34.6534,-58.6198,70.0,64,0,4.21,AR,1619910684
Khandyga,62.6667,135.6,38.16,86,100,0.4,RU,1619910684
Faya,18.3851,42.4509,68.0,39,0,2.39,SA,1619910685
Tandaltī,13.0167,31.8667,89.46,23,90,6.2,SD,1619910685
Camargo,27.6667,-105.1667,76.5,22,25,11.99,MX,1619910685
Beringovskiy,63.05,179.3167,20.93,82,96,13.24,RU,1619910277
Mossamedes,-15.1961,12.1522,76.78,77,23,5.46,AO,1619910686
Obo,5.3998,26.4869,68.7,96,100,5.01,CF,1619910686
Robertsport,6.7533,-11.3686,82.2,79,55,10.76,LR,1619910649
Marathon,44.9,-89.7668,84.2,20,1,12.66,US,1619910686
Vardø,70.3705,31.1107,33.57,69,96,15.55,NO,1619910687
Kirakira,-10.4544,161.9205,80.85,79,100,4.47,SB,1619910687
Zhangye,38.9342,100.4517,63.73,19,100,15.79,CN,1619910687
Katherine,-14.4667,132.2667,73.4,78,0,5.75,AU,1619910688
Ilulissat,69.2167,-51.1,44.6,45,17,14.97,GL,1619910480
Sobolevo,54.4299,31.8996,43.02,75,100,4.85,RU,1619910688
Boone,39.0334,-92.3335,82.4,24,1,13.8,US,1619910688
Rocha,-34.4833,-54.3333,59.92,90,1,5.39,UY,1619910689
Leningradskiy,69.3833,178.4167,16.95,89,100,20.8,RU,1619910689
Ancud,-41.8697,-73.8203,54.0,87,0,6.91,CL,1619910690
Grindavik,63.8424,-22.4338,39.2,56,75,9.22,IS,1619910690
Mana,5.6592,-53.7767,77.95,89,96,7.72,GF,1619910642
Acapulco de Juárez,16.8634,-99.8901,84.2,70,75,12.66,MX,1619910690
Nelson Bay,-32.7167,152.15,69.01,82,74,4.61,AU,1619910691
Okha,53.5739,142.9478,31.84,87,100,12.39,RU,1619910691
Nuevo Progreso,23.1667,-97.95,79.0,89,94,5.01,MX,1619910691
Henties Bay,-22.116,14.2845,60.01,91,0,2.62,NA,1619910692
Khorixas,-20.3667,14.9667,71.24,52,49,8.21,NA,1619910692
Tabas,33.5959,56.9244,73.4,46,100,4.54,IR,1619910692
Saint Paul Harbor,57.79,-152.4072,44.6,70,90,9.22,US,1619910157
Lorengau,-2.0226,147.2712,82.33,75,95,1.21,PG,1619910693
Faanui,-16.4833,-151.75,80.78,67,57,3.94,PF,1619910429
Bikaner,28.0167,73.3,84.4,28,66,11.63,IN,1619910693
Lesosibirsk,58.2358,92.4828,37.24,90,96,6.51,RU,1619910693
Bétaré Oya,5.6,14.0833,66.42,93,100,4.03,CM,1619910694
Santa Isabel Rio Negro,-0.4139,-65.0192,74.8,95,60,0.96,BR,1619910674
Tomatlán,19.9333,-105.25,88.47,25,0,11.86,MX,1619910694
Eyl,7.9803,49.8164,83.43,74,44,8.32,SO,1619910695
Plouzané,48.3833,-4.6167,42.8,75,0,3.44,FR,1619910695
Fare,-16.7,-151.0167,81.05,67,96,3.69,PF,1619910695
Zhangaözen,43.3,52.8,61.81,24,93,13.2,KZ,1619910696
Ketchikan,55.3422,-131.6461,48.2,93,90,8.05,US,1619910401
Tiksi,71.6872,128.8694,22.6,98,100,3.53,RU,1619910479
Chui,-33.6971,-53.4616,62.71,91,1,6.06,UY,1619910112
La Asuncion,11.0333,-63.8628,86.0,54,74,19.57,VE,1619910696
Touros,-5.1989,-35.4608,77.0,88,20,3.44,BR,1619910696
Asău,46.4333,26.4,57.99,56,100,3.09,RO,1619910697
Opuwo,-18.0607,13.84,70.84,48,65,2.15,NA,1619910697
Cockburn Town,21.4612,-71.1419,80.6,69,40,11.5,TC,1619910697
Mahajanga,-15.7167,46.3167,78.8,89,20,3.44,MG,1619910541
Kavieng,-2.5744,150.7967,83.61,69,36,1.79,PG,1619910464
Ribeira Grande,38.5167,-28.7,62.6,94,75,16.11,PT,1619910427
Rawson,-43.3002,-65.1023,62.06,52,100,11.14,AR,1619910521
Qaqortoq,60.7167,-46.0333,44.6,24,20,39.12,GL,1619910429
Sistranda,63.7256,8.834,32.0,86,20,3.44,NO,1619910698
Saint-Joseph,-21.3667,55.6167,73.99,68,0,6.91,RE,1619910633
Belmonte,-15.8631,-38.8828,71.6,88,75,3.44,BR,1619910570
Hambantota,6.1241,81.1185,79.43,81,95,1.81,LK,1619910699
Mackay,-21.15,149.2,72.0,78,40,14.97,AU,1619910643
Kodino,63.7198,39.6447,28.06,93,97,7.23,RU,1619910699
Constitución,-35.3333,-72.4167,54.91,94,100,7.56,CL,1619910700
Boqueirão,-7.5,-36.1333,75.2,78,20,8.05,BR,1619910700
Mbaïki,3.8678,17.9892,69.22,97,85,1.23,CF,1619910700
Ordu,40.9086,37.6845,50.0,100,90,4.61,TR,1619910605
Hay River,60.8156,-115.7999,26.6,74,100,13.8,CA,1619910701
Peleduy,59.6289,112.7406,36.12,97,100,3.44,RU,1619910701
Kaitangata,-46.2817,169.8464,59.0,56,10,4.0,NZ,1619910702
Muravlenko,63.7898,74.523,30.2,84,100,17.92,RU,1619910426
Corn Island,12.1694,-83.0418,81.21,71,72,8.66,NI,1619910582
Taoudenni,22.6783,-3.9836,87.42,28,15,9.06,ML,1619910534
Port Lincoln,-34.7333,135.8667,60.85,74,100,11.56,AU,1619910702
Erdemli,36.605,34.3084,72.75,54,48,7.09,TR,1619910422
Beohāri,24.05,81.3833,84.22,27,75,5.73,IN,1619910703
Vega de Alatorre,20.0333,-96.6333,80.76,81,54,6.11,MX,1619910703
Sivaki,52.6333,126.75,45.14,48,77,6.55,RU,1619910703
Bambanglipuro,-7.95,110.2833,75.99,87,99,3.85,ID,1619910704
Vila do Maio,15.1333,-23.2167,71.6,78,40,19.57,CV,1619910704
Saskylakh,71.9167,114.0833,32.5,91,100,1.66,RU,1619910704
Vila Franca do Campo,37.7167,-25.4333,59.0,94,75,11.5,PT,1619910704
Sémbé,1.6481,14.5806,71.22,92,60,1.7,CG,1619910705
Idukki,9.85,76.9667,69.71,93,85,2.77,IN,1619910705
Petropavlovsk-Kamchatskiy,53.0452,158.6483,33.8,100,90,6.71,RU,1619910705
Tilichiki,60.4667,166.1,21.61,75,9,8.75,RU,1619910706
Kaspiysk,42.8816,47.6392,57.2,88,91,4.47,RU,1619910706
Skjervøy,70.0311,20.9714,31.41,64,100,5.23,NO,1619910706
Najrān,17.4924,44.1277,77.0,19,40,2.3,SA,1619910707
Cap Malheureux,-19.9842,57.6142,75.0,89,12,3.0,MU,1619910707
Konëvo,62.1215,39.3192,29.46,50,1,9.89,RU,1619910707
Oistins,13.0667,-59.5333,78.8,65,20,14.97,BB,1619910708
Muniz Freire,-20.4642,-41.4131,59.54,98,96,1.97,BR,1619910708
Esperance,-33.8667,121.9,50.0,81,0,13.8,AU,1619910708
Visby,57.6409,18.296,37.4,93,90,4.61,SE,1619910709
Fort Nelson,58.8053,-122.7002,55.4,38,75,11.5,CA,1619910709
Tulun,54.5611,100.5792,40.17,82,100,4.27,RU,1619910709
Luján,-34.5703,-59.105,66.99,70,1,1.99,AR,1619910710
Kintinku,-5.8833,35.2333,68.86,88,85,0.81,TZ,1619910710
Rosignano Marittimo,43.4079,10.4729,59.0,94,40,2.3,IT,1619910711
Kargil,34.5667,76.1,35.96,51,68,4.59,IN,1619910711
Loandjili,-4.7561,11.8578,80.6,89,20,4.61,CG,1619910711
Calama,-22.4667,-68.9333,59.0,18,0,13.8,CL,1619910656
Port Hardy,50.6996,-127.4199,50.0,76,40,13.8,CA,1619910712
Kushiro,42.975,144.3747,39.2,75,75,8.05,JP,1619910712
Tambopata,-12.7333,-69.1833,78.8,78,0,1.14,PE,1619910712
Yamada,39.4667,141.95,47.93,91,100,6.89,JP,1619910713
Lüderitz,-26.6481,15.1594,76.51,25,0,17.87,NA,1619910713
Plettenberg Bay,-34.0527,23.3716,58.15,71,0,4.34,ZA,1619910713
Bumba,2.1833,22.4667,71.29,91,91,1.77,CD,1619910714
Rapid Valley,44.0625,-103.1463,78.8,21,1,5.75,US,1619910714
Guangyuan,32.442,105.823,68.2,90,89,2.42,CN,1619910513
Kahului,20.8947,-156.47,84.2,58,40,19.57,US,1619910534
Tshikapa,-6.4167,20.8,69.44,96,100,2.77,CD,1619910590
Mayo,38.8876,-76.5119,66.2,20,1,5.75,US,1619910714
Moose Factory,51.2585,-80.6094,26.6,93,90,12.66,CA,1619910683
Shenjiamen,29.9576,122.298,60.57,81,15,1.54,CN,1619910482
Avera,33.194,-82.5271,78.8,34,1,5.75,US,1619910715
Kruisfontein,-34.0033,24.7314,54.1,75,0,5.32,ZA,1619910715
Saint George,37.1041,-113.5841,91.4,7,1,28.77,US,1619910661
Haikou,20.0458,110.3417,77.0,94,88,4.47,CN,1619910676
Bairiki Village,1.3292,172.9752,86.0,74,40,6.91,KI,1619910716
Marshall,34.3834,-86.3333,77.0,25,1,4.61,US,1619910435
Sulejówek,52.2522,21.269,48.99,86,100,8.1,PL,1619910716
Hastings,50.8552,0.5729,41.0,93,82,4.61,GB,1619910717
San Francisco de Becerra,14.6333,-86.1,89.6,40,40,2.3,HN,1619910717
Olbia,40.9214,9.4856,59.0,72,0,16.11,IT,1619910717
Cabo San Lucas,22.8909,-109.9124,78.8,47,1,6.91,MX,1619910462
Havre-St-Pierre,50.2334,-63.5986,41.0,81,90,16.11,CA,1619910659
Riyadh,24.6877,46.7219,78.8,22,0,3.44,SA,1619910718
Tura,25.5198,90.2201,70.2,75,9,4.83,IN,1619910718
Garoowe,8.4054,48.4845,80.64,66,97,8.61,SO,1619910719
Okoneshnikovo,54.8377,75.0834,38.37,51,6,7.92,RU,1619910719
Navahrudak,53.6,25.8333,42.85,92,100,5.88,BY,1619910719
Kloulklubed,7.0419,134.2556,80.6,89,90,6.91,PW,1619910699
Mbandaka,0.0487,18.2603,71.31,97,92,3.24,CD,1619910720
Hofn,64.2539,-15.2082,36.63,67,100,14.67,IS,1619910720
Barraute,48.4335,-77.6328,35.6,93,90,10.36,CA,1619910721
Kizilskoye,52.7255,58.8937,47.95,62,78,9.44,RU,1619910721
Melong,5.1218,9.9614,67.44,93,97,0.67,CM,1619910721
Kaoma,-14.7833,24.8,63.01,96,85,3.65,ZM,1619910722
Athmallik,20.7219,84.5348,78.01,61,12,4.0,IN,1619910722
Sambava,-14.2667,50.1667,75.04,91,18,5.79,MG,1619910723
San Miguel de Tucumán,-26.8241,-65.2226,69.8,73,12,3.98,AR,1619910721
Srednekolymsk,67.45,153.6833,27.05,78,10,6.49,RU,1619910723
Dulce Grande,23.0,-102.1667,75.2,7,1,34.52,MX,1619910723
Mount Isa,-20.7333,139.5,77.0,47,2,9.22,AU,1619910508
Ambilobe,-13.2,49.05,72.66,95,14,3.09,MG,1619910724
Mocuba,-16.8392,36.9856,69.4,99,76,3.71,MZ,1619910724
Olafsvik,64.8945,-23.7142,35.53,69,65,19.55,IS,1619910495
Olonets,60.9847,32.9698,30.45,87,18,3.91,RU,1619910724
Bouna,9.2667,-3.0,80.69,61,84,6.33,CI,1619910725
Shalinskoye,55.7228,93.7594,35.31,88,91,5.88,RU,1619910725
Leh,34.1667,77.5833,36.99,48,38,1.63,IN,1619910726
Ucluelet,48.9329,-125.5528,53.6,62,20,17.27,CA,1619910646
Mirny,62.5353,113.9611,33.87,98,100,4.12,RU,1619910726
Hays,30.0502,-98.0336,66.99,98,99,11.43,US,1619910726
Half Moon Bay,37.4636,-122.4286,60.8,87,90,20.71,US,1619910499
San Quintín,30.4833,-115.95,65.89,69,93,16.89,MX,1619910727
Chippewa Falls,44.9369,-91.3929,84.2,18,1,11.5,US,1619910727
Berbera,10.4396,45.0143,85.17,72,98,5.19,SO,1619910727
Mahrīz,31.5917,54.4318,69.8,40,0,11.5,IR,1619910728
Ziro,27.6333,93.8333,50.05,91,99,1.21,IN,1619910728
Juneau,58.3019,-134.4197,50.0,53,75,1.1,US,1619910728
Bulgan,48.8125,103.5347,44.44,71,76,0.74,MN,1619910729
Vostok,46.4856,135.8833,38.75,63,75,6.13,RU,1619910430
Mahibadhoo,3.7833,72.9667,83.08,66,26,3.29,MV,1619910496
Santa Cecília,-26.9608,-50.4269,51.46,98,41,3.04,BR,1619910729
Le Port,-20.9373,55.2919,73.99,78,0,6.91,RE,1619910730
Arrondissement de Saumur,47.3333,-0.25,44.01,81,0,6.71,FR,1619910730
Batagay,67.6333,134.6333,30.63,87,100,3.31,RU,1619910730
Quthing,-30.4,27.7003,46.85,73,1,2.95,LS,1619910730
Sabang,5.8933,95.3214,83.66,74,51,11.97,ID,1619910731
Port Hedland,-20.3167,118.5667,71.6,100,90,4.61,AU,1619910731
Makkah al Mukarramah,21.4267,39.8261,83.95,47,96,2.91,SA,1619910731
Gornopravdinsk,60.05,69.9,45.05,53,100,12.73,RU,1619910732
Paita,-5.0892,-81.1144,73.4,78,40,14.97,PE,1619910732
Lake City,30.1897,-82.6393,84.2,36,1,4.61,US,1619910732
Nerchinskiy Zavod,51.3088,119.61,46.2,56,100,7.7,RU,1619910733
Kungurtug,50.5994,97.5228,31.59,88,100,7.92,RU,1619910733
Robe,-37.1833,139.75,62.11,78,57,14.83,AU,1619910733
Road Town,18.4167,-64.6167,80.01,78,40,11.5,VG,1619910734
Caceres,39.522,-6.3748,48.99,70,83,1.01,ES,1619910734
Rosarno,38.4841,15.979,73.4,43,0,8.05,IT,1619910734
Braşov,45.75,25.3333,60.01,75,100,3.22,RO,1619910256
Waipawa,-41.4122,175.5153,55.0,82,2,9.22,NZ,1619910735
Elko,41.0002,-115.5012,75.2,7,1,25.32,US,1619910735
Kargasok,59.0556,80.8572,31.01,88,87,8.12,RU,1619910735
São José da Coroa Grande,-8.8978,-35.1478,77.14,85,97,8.3,BR,1619910736
Buriti dos Lopes,-3.175,-41.8669,72.82,98,100,4.99,BR,1619910736
Kodinsk,58.6881,99.1844,33.94,89,22,3.06,RU,1619910736
Séguéla,7.9611,-6.6731,80.35,61,84,8.03,CI,1619910565
Wanning,18.8003,110.3967,78.53,86,81,4.29,CN,1619910503
La Palma,33.8464,-118.0467,71.6,68,1,9.22,US,1619910737
Honiara,-9.4333,159.95,84.51,67,59,3.2,SB,1619910737
Hondomachi-hondo,32.45,130.2,59.0,55,75,16.11,JP,1619910738
Dingle,10.9995,122.6711,81.32,76,40,8.81,PH,1619910738
Mitchell,43.7094,-98.0298,89.6,15,1,17.27,US,1619910738
Marzuq,14.4,46.4667,64.15,93,100,4.14,YE,1619910668
Ponta Delgada,37.7333,-25.6667,59.0,94,75,11.5,PT,1619910739
Steinbach am Taunus,50.1667,8.5667,51.8,46,40,8.05,DE,1619910739
Zhigansk,66.7697,123.3711,31.42,92,100,5.21,RU,1619910739
Alice Springs,-23.7,133.8833,73.99,42,15,8.66,AU,1619910740
San Cristobal,7.7669,-72.225,77.0,94,75,3.44,VE,1619910740
Canutama,-6.5339,-64.3831,74.88,96,27,1.88,BR,1619910740
Shiggaon,15.0,75.2333,79.74,61,24,4.94,IN,1619910741
Yanam,16.7333,82.2167,76.53,93,10,2.1,IN,1619910538
Río Gallegos,-51.6226,-69.2181,42.8,87,40,4.61,AR,1619910741
Sioux Lookout,50.1001,-91.917,68.0,30,40,13.8,CA,1619910741
Yenagoa,4.9247,6.2642,77.56,93,93,4.41,NG,1619910742
São Miguel do Araguaia,-13.275,-50.1628,76.15,70,100,5.19,BR,1619910742
Derzhavīnsk,51.1,66.3167,49.17,48,59,10.51,KZ,1619910742
Maryville,35.7565,-83.9705,75.2,13,20,0.78,US,1619910743
Vuktyl,63.8567,57.3094,32.49,91,29,10.31,RU,1619910743
Krasnokamensk,50.0979,118.0369,45.84,46,100,10.71,RU,1619910743
Soe,-9.8607,124.284,67.48,84,51,4.47,ID,1619910744
Salym,60.0625,71.4789,41.38,52,100,13.62,RU,1619910744
Ngunguru,-35.6167,174.5,66.0,68,0,4.0,NZ,1619910744
Comodoro Rivadavia,-45.8667,-67.5,60.8,41,0,8.05,AR,1619910745
Kuching,1.55,110.3333,75.2,100,20,2.91,MY,1619910745
Makhinjauri,41.6739,41.694,53.6,100,40,3.44,GE,1619910745
Balkanabat,39.5108,54.3671,74.17,25,97,14.12,TM,1619910745
Kawasaki,35.5206,139.7172,66.99,72,20,12.66,JP,1619910746
Shingū,33.7333,135.9833,59.0,55,75,13.8,JP,1619910746
San Bartolomé de Tirajana,27.9248,-15.5733,66.2,68,40,16.11,ES,1619910746
Altea,38.5989,-0.0514,61.0,81,100,1.21,ES,1619910747
Porbandar,21.6422,69.6093,82.08,71,81,7.05,IN,1619910747
Emerald,-23.5333,148.1667,69.01,77,67,13.8,AU,1619910747
Solnechnyy,50.7214,136.6319,35.1,80,100,9.71,RU,1619910748
San Patricio,28.017,-97.5169,75.2,88,40,9.22,US,1619910463
Codrington,-38.2667,141.9667,60.28,80,100,10.92,AU,1619910748
Sola,-13.8833,167.55,78.12,83,95,11.72,VU,1619910748
Lisala,2.15,21.5167,69.55,94,90,2.68,CD,1619910749
Verkhniy Rohachyk,47.2505,34.338,60.55,75,92,7.76,UA,1619910749
Vytegra,61.0064,36.4481,27.63,85,15,5.41,RU,1619910749
Kununurra,-15.7667,128.7333,66.2,94,0,4.09,AU,1619910750
Santiago del Estero,-27.7951,-64.2615,71.74,50,24,7.54,AR,1619910750
Lloydminster,53.2835,-110.0016,59.0,29,75,19.57,CA,1619910750
Fairbanks,64.8378,-147.7164,44.01,45,40,4.61,US,1619910751
Dalianwan,39.0286,121.695,50.0,66,0,6.71,CN,1619910751
Yorosso,12.3536,-4.7761,87.96,29,33,3.96,ML,1619910751
São João da Barra,-21.6403,-41.0511,71.51,76,94,9.84,BR,1619910752
Troitskoye,52.9821,84.6757,33.71,86,70,7.45,RU,1619910752
Ayer Molek,2.2033,102.3171,75.2,100,20,2.3,MY,1619910752
Minnedosa,50.2453,-99.8436,71.6,24,40,5.75,CA,1619910753
Yar-Sale,66.8333,70.8333,27.28,95,100,20.11,RU,1619910460
Teknāf,20.8624,92.3058,76.14,88,2,2.98,BD,1619910753
Maningrida,-12.0667,134.2667,77.07,78,8,10.65,AU,1619910754
Meadow Lake,34.8014,-106.5436,86.0,13,75,9.22,US,1619910754
Charters Towers,-20.1,146.2667,70.7,68,0,10.07,AU,1619910754
Anloga,5.7947,0.8973,84.2,84,20,11.5,GH,1619910755
Egvekinot,66.3167,-179.1667,18.81,67,100,2.35,RU,1619910492
Quatre Cocos,-20.2078,57.7625,75.0,94,75,4.61,MU,1619910755
Monywa,22.1167,95.1333,81.21,61,0,3.83,MM,1619910755
Lázaro Cárdenas,17.9583,-102.2,82.62,62,99,12.44,MX,1619910756
Porto Santo,33.072,-16.3415,60.8,63,20,5.75,PT,1619910756
Dubbo,-32.25,148.6167,60.8,82,90,10.36,AU,1619910756
Shipunovo,52.1582,82.2173,35.35,81,24,6.73,RU,1619910757
Oakham,52.6667,-0.7333,41.0,81,90,2.3,GB,1619910757
Bubaque,11.2833,-15.8333,78.53,72,16,18.84,GW,1619910757
Hasaki,35.7333,140.8333,66.2,59,20,5.75,JP,1619910758
North Branch,45.5113,-92.9802,87.8,20,1,5.75,US,1619910758
Kochi,9.9399,76.2602,75.2,94,79,5.41,IN,1619910758
Husavik,66.0449,-17.3389,33.8,80,90,8.05,IS,1619910759
Port-Cartier,50.0334,-66.8654,35.01,64,90,18.41,CA,1619910759
Cayenne,4.9333,-52.3333,81.0,83,0,3.44,GF,1619910759
Kangaatsiaq,68.3065,-53.4641,32.59,83,23,10.74,GL,1619910760
Saint-Ambroise,48.5501,-71.3324,48.99,29,76,13.8,CA,1619910760
Xalapa,19.5333,-96.9167,71.38,81,88,4.14,MX,1619910760
Shimoda,34.6667,138.95,60.01,64,12,1.99,JP,1619910761
Verkhoyansk,67.5447,133.385,32.29,82,100,3.53,RU,1619910761
San Miguel,13.4833,-88.1833,91.4,55,20,9.22,SV,1619910761
Puerto Colombia,10.9878,-74.9547,82.4,74,40,10.36,CO,1619910762
Mugur-Aksy,50.35,90.5,22.57,78,81,7.85,RU,1619910762
Lao Cai,22.4833,103.95,73.72,96,100,1.12,VN,1619910762
Porto-Novo,6.4965,2.6036,84.2,84,40,12.66,BJ,1619910631
Ossora,59.2353,163.0719,28.4,61,1,2.42,RU,1619910763
Pajapan,18.25,-94.7,89.6,70,75,11.5,MX,1619910763
Ihosy,-22.4,46.1167,64.06,90,99,2.53,MG,1619910763
Aberchirder,57.5601,-2.6286,39.99,85,15,1.68,GB,1619910764
Whitehorse,60.7161,-135.0538,44.6,45,90,6.91,CA,1619910764
Perevoz,55.5961,44.5446,39.25,84,28,3.85,RU,1619910764
Zhicheng,30.2956,111.5047,71.01,83,95,5.06,CN,1619910764
Bone,51.9669,12.1396,51.01,74,100,1.01,DE,1619910765
Ojinaga,29.5667,-104.4167,77.0,31,1,3.96,MX,1619910765
Bamako,12.65,-8.0,84.2,70,20,3.44,ML,1619910765
Raudeberg,61.9875,5.1352,41.0,78,13,16.2,NO,1619910635
Jesús Carranza,17.4333,-95.0333,94.8,39,100,20.2,MX,1619910766
Hobyo,5.3505,48.5268,84.04,66,99,10.67,SO,1619910766
Shitkino,56.3703,98.3543,35.29,89,98,2.64,RU,1619910766
Nome,64.5011,-165.4064,26.6,68,90,10.36,US,1619910767
Sitka,57.0531,-135.33,46.4,71,90,6.91,US,1619910735
Ust-Maya,60.4167,134.5333,40.68,69,61,9.37,RU,1619910767
Zabid,14.1951,43.3152,82.13,60,93,1.77,YE,1619910767
El Sauzal de Rodríguez,31.9,-116.6833,68.0,72,100,4.0,MX,1619910768
Lewistown,40.5992,-77.5714,64.4,24,1,6.91,US,1619910768
Canberra,-35.2835,149.1281,54.0,100,40,0.31,AU,1619910768
Kumul,42.8,93.45,59.54,30,100,22.26,CN,1619910769
Vila,42.0304,-8.1588,45.0,81,44,1.99,PT,1619910559
Yibin,28.7667,104.6238,73.09,85,84,2.44,CN,1619910769
Belyy Yar,53.6039,91.3903,42.8,75,40,6.71,RU,1619910719
De Aar,-30.6497,24.0123,52.77,53,0,6.38,ZA,1619910770
Waingapu,-9.6567,120.2641,78.04,80,50,8.88,ID,1619910770
Chumikan,54.7183,135.315,31.69,96,100,9.4,RU,1619910482
Kaeo,-35.1,173.7833,66.0,68,0,4.0,NZ,1619910770
Verkhnyaya Toyma,62.2349,44.9985,28.26,70,41,7.34,RU,1619910771
Puerto Escondido,15.85,-97.0667,84.2,65,75,8.05,MX,1619910771
Yaan,7.3833,8.5667,82.02,69,54,10.83,NG,1619910771
Araouane,18.9048,-3.5265,88.07,26,18,4.61,ML,1619910588
Laguna,38.421,-121.4238,84.0,36,1,16.11,US,1619910772
Bahía Blanca,-38.7196,-62.2724,65.21,53,100,4.99,AR,1619910715
Tiarei,-17.5333,-149.3333,87.8,62,20,4.61,PF,1619910772
Betulia,6.1128,-75.9838,60.8,94,75,2.3,CO,1619910772
Gorodishche,48.8045,44.4744,53.6,87,0,4.47,RU,1619910481
San Jerónimo,-11.9472,-75.2829,51.62,72,68,5.03,PE,1619910773
Lokosovo,61.1333,74.8167,33.69,77,91,11.72,RU,1619910773
Pampa,35.5362,-100.9599,80.6,31,40,14.97,US,1619910773
Province of Mantua,45.1667,10.7833,59.0,93,96,5.01,IT,1619910774
Loa Janan,-0.583,117.095,75.06,90,62,0.47,ID,1619910774
Port Blair,11.6667,92.75,82.04,76,41,2.8,IN,1619910539
Birao,10.2849,22.7882,83.23,33,89,3.09,CF,1619910663
Ambovombe,-25.1667,46.0833,70.83,81,100,4.14,MG,1619910774
Vanavara,60.34,102.2797,32.77,89,35,4.74,RU,1619910775
